{
  "artist": {
    "name": "Duki",
    "country": "Argentina"
  },
  "genres": [
    "Argentine Hip Hop",
    "Latin",
    "Trap",
    "Boujee",
    "Trap Latino"
  ],
  "salesData": {
    "totalSales": "2195700",
    "ticketsSold": "2150000",
    "merchSold": "45700"
  },
  "socialMediaLinks": [
    {
      "name": "Spotify",
      "url": "https://open.spotify.com/artist/1bAftSH8umNcGZ0uyV7LMg",
      "logoUrl": "https://songstats.com/files/source-icons/spotify.webp"
    },
    {
      "name": "Instagram",
      "url": "https://www.instagram.com/duki",
      "logoUrl": "https://songstats.com/files/source-icons/instagram.webp"
    },
    {
      "name": "YouTube",
      "url": "https://youtube.com/channel/UCJUYcEdvnYFGajHBW0Nao3w",
      "logoUrl": "https://songstats.com/files/source-icons/youtube.webp"
    },
    {
      "name": "Apple Music",
      "url": "https://music.apple.com/us/artist/duki/408527217",
      "logoUrl": "https://svgl.app/library/apple-music-icon.svg"
    },
    {
      "name": "Beatport",
      "url": "https://www.beatport.com/artist/duki/757467",
      "logoUrl": "https://songstats.com/files/source-icons/beatport.webp"
    },
    {
      "name": "SoundCloud",
      "url": "https://soundcloud.com/dukissj",
      "logoUrl": "https://songstats.com/files/source-icons/soundcloud.webp"
    },
    {
      "name": "Amazon Music",
      "url": "https://music.amazon.com/artists/B005UZ1GE4?ref=dm_ff_tracklists",
      "logoUrl": "https://songstats.com/files/source-icons/amazon.webp"
    },
    {
      "name": "Deezer",
      "url": "https://deezer.com/us/artist/4902904",
      "logoUrl": "https://songstats.com/files/source-icons/deezer.webp"
    },
    {
      "name": "Tidal",
      "url": "https://listen.tidal.com/artist/6772771/",
      "logoUrl": "https://songstats.com/files/source-icons/tidal.webp"
    },
    {
      "name": "Bandsintown",
      "url": "https://www.bandsintown.com/a/658597?came_from=706&app_id=d8e393be8ba69d17212c1d9744a43682",
      "logoUrl": "https://songstats.com/files/source-icons/bandsintown.webp"
    }
  ],
  "performance": {
    "followers": "36.7M",
    "totalFollowersDetailed": "36,650,767",
    "streams": "18.4B",
    "playlists": "30K",
    "playlistReach": "463M",
    "charts": "1311",
    "shazams": "18.6M",
    "videos": "3.09M",
    "views": "14.6B",
    "djSupports": "23"
  },
  "followerBreakdown": {
    "total": "36,650,767",
    "byPlatform": {
      "spotify": "13,263,773",
      "instagram": "13,833,106",
      "youtube": "7,973,097",
      "deezer": "806,928",
      "songkick": "307,046",
      "amazon": "245,970",
      "bandsintown": "164,690",
      "soundcloud": "56,157"
    },
    "percentageBreakdown": {
      "spotify": "36.2%",
      "instagram": "37.7%",
      "youtube": "21.8%",
      "deezer": "2.2%",
      "songkick": "0.8%",
      "amazon": "0.7%",
      "bandsintown": "0.4%",
      "soundcloud": "0.2%"
    }
  },
  "recentReleases": [
    {
      "title": "Golfista",
      "artist": "Duki",
      "releaseDate": "7 Jul 2025",
      "imageUrl": "https://i.scdn.co/image/ab67616d00001e027e9ff1aed4ab2cf3853b750b",
      "songstatsUrl": "https://songstats.com/track/anu18hp4/golfista?source=overview"
    },
    {
      "title": "NO ME ALCANZA",
      "artist": "Duki",
      "releaseDate": "7 Jul 2025",
      "imageUrl": "https://i.scdn.co/image/ab67616d00001e027e9ff1aed4ab2cf3853b750b",
      "songstatsUrl": "https://songstats.com/track/d2frxc37/no-me-alcanza?source=overview"
    },
    {
      "title": "[FREE] 5202 Type Beat",
      "artist": "Duki",
      "releaseDate": "7 Jul 2025",
      "imageUrl": "https://i.scdn.co/image/ab67616d00001e027e9ff1aed4ab2cf3853b750b",
      "songstatsUrl": "https://songstats.com/track/yir8knxm/free-5202-type-beat?source=overview"
    },
    {
      "title": "eCLIPSE sOLAR",
      "artist": "Duki",
      "releaseDate": "7 Jul 2025",
      "imageUrl": "https://i.scdn.co/image/ab67616d00001e027e9ff1aed4ab2cf3853b750b",
      "songstatsUrl": "https://songstats.com/track/z0hvnusj/eclipse-solar?source=overview"
    },
    {
      "title": "aGaRRo La PLaTa",
      "artist": "Duki, Clúster",
      "releaseDate": "7 Jul 2025",
      "imageUrl": "https://i.scdn.co/image/ab67616d00001e027e9ff1aed4ab2cf3853b750b",
      "songstatsUrl": "https://songstats.com/track/f02vyn3o/agarro-la-plata?source=overview"
    }
  ],
  "topPerformingTracks": [
    {
      "title": "Nueva Era",
      "artists": "Duki, Myke Towers",
      "popularity": "74%",
      "imageUrl": "https://i.scdn.co/image/ab67616d00001e02ee67e1ebdbc7a30772972a48",
      "songstatsUrl": "https://songstats.com/track/7fo5891q/nueva-era?source=overview"
    },
    {
      "title": "Loca",
      "artists": "KHEA, Duki, Cazzu",
      "popularity": "74%",
      "imageUrl": "https://i.scdn.co/image/ab67616d00001e02907c363225bfd55a5dbb4051",
      "songstatsUrl": "https://songstats.com/track/trcyj0do/loca?source=overview"
    },
    {
      "title": "She Don't Give a Fo",
      "artists": "Barloe Team, Duki, KHEA",
      "popularity": "73%",
      "imageUrl": "https://i.scdn.co/image/ab67616d00001e023ba92b218fbc97d244235a21",
      "songstatsUrl": "https://songstats.com/track/1o3cnz67/she-don-t-give-a-fo?source=overview"
    },
    {
      "title": "Los del Espacio",
      "artists": "LIT killah, Tiago PZK, Maria Becerra",
      "popularity": "71%",
      "imageUrl": "https://i.scdn.co/image/ab67616d00001e0252a52eac3761e2133bd0f57a",
      "songstatsUrl": "https://songstats.com/track/7g3mtnb2/los-del-espacio?source=overview"
    },
    {
      "title": "Antes de Perderte",
      "artists": "Duki",
      "popularity": "69%",
      "imageUrl": "https://i.scdn.co/image/ab67616d00001e02e63232b00577a053120ca08f",
      "songstatsUrl": "https://songstats.com/track/zglq8m6s/antes-de-perderte?source=overview"
    },
    {
      "title": "Rockstar",
      "artists": "Duki",
      "popularity": "69%",
      "imageUrl": "https://i.scdn.co/image/ab67616d00001e022f405d5d63a07b98ced1521a",
      "songstatsUrl": "https://songstats.com/track/plax1nkc/rockstar?source=overview"
    },
    {
      "title": "Marisola (Remix)",
      "artists": "Standly, Cris MJ, Stars Music Chile",
      "popularity": "69%",
      "imageUrl": "https://i.scdn.co/image/ab67616d00001e0218943b5819c6580759c92e5d",
      "songstatsUrl": "https://songstats.com/track/alkhngox/marisola-remix?source=overview"
    },
    {
      "title": "Una Vaina Loca",
      "artists": "Fuego, Manuel Turizo, El Potro Alvarez",
      "popularity": "69%",
      "imageUrl": "https://i.scdn.co/image/ab67616d00001e02574accbc3e8c702bb6ee68f0",
      "songstatsUrl": "https://songstats.com/track/q0x493vd/una-vaina-loca?source=overview"
    },
    {
      "title": "Loca - Remix",
      "artists": "KHEA, Bad Bunny, Duki",
      "popularity": "68%",
      "imageUrl": "https://i.scdn.co/image/ab67616d00001e0260a1b828beab034f65ad785b",
      "songstatsUrl": "https://songstats.com/track/l9gy6wo4/loca-remix?source=overview"
    },
    {
      "title": "Hello Cotto",
      "artists": "Duki",
      "popularity": "68%",
      "imageUrl": "https://i.scdn.co/image/ab67616d00001e026b43ad890ad0d010e3e2a6d6",
      "songstatsUrl": "https://songstats.com/track/o6f31hnp/hello-cotto?source=overview"
    }
  ],
  "relatedLabels": [
    "DALE PLAY Records / SSJ Records",
    "WEA Latina",
    "Carosello Records"
  ],
  "platformsAvailable": [
    "Overview",
    "Spotify",
    "Radiostats",
    "Apple Music",
    "Amazon",
    "Deezer",
    "Instagram",
    "TikTok",
    "YouTube",
    "Shazam",
    "1001Tracklists",
    "Beatport",
    "Traxsource",
    "Tidal",
    "SoundCloud"
  ],
  "audienceMetrics": {
    "platform": "Spotify",
    "extractedFrom": "https://songstats.com/artist/legfsxq2/duki/audience?source=spotify",
    "extractedAt": "2025-10-16T20:30:01.911Z",
    "overallMetrics": {
      "monthlyListeners": "15.7M",
      "monthlyListenersPeriod": "Last 28 Days",
      "currentFollowers": "13.3M",
      "followersPeriod": "Current",
      "popularity": "79%",
      "popularityPeriod": "Current"
    },
    "listenersByCity": [
      {
        "city": "Mexico City",
        "country": "Mexico",
        "coordinates": {
          "latitude": 19.4326,
          "longitude": -99.1332
        },
        "currentMonthlyListeners": "1,142,585",
        "peakMonthlyListeners": "1,148,857",
        "peakDate": "15 Sep 2025"
      },
      {
        "city": "Buenos Aires",
        "country": "Argentina",
        "coordinates": {
          "latitude": -34.6118,
          "longitude": -58.3960
        },
        "currentMonthlyListeners": "1,031,271",
        "peakMonthlyListeners": "1,428,075",
        "peakDate": "26 May 2025"
      },
      {
        "city": "Santiago",
        "country": "Chile",
        "coordinates": {
          "latitude": -33.4489,
          "longitude": -70.6693
        },
        "currentMonthlyListeners": "789,810",
        "peakMonthlyListeners": "1,041,679",
        "peakDate": "21 May 2025"
      },
      {
        "city": "Madrid",
        "country": "Spain",
        "coordinates": {
          "latitude": 40.4168,
          "longitude": -3.7038
        },
        "currentMonthlyListeners": "665,814",
        "peakMonthlyListeners": "811,378",
        "peakDate": "19 May 2025"
      },
      {
        "city": "Lima",
        "country": "Peru",
        "coordinates": {
          "latitude": -12.0464,
          "longitude": -77.0428
        },
        "currentMonthlyListeners": "470,472",
        "peakMonthlyListeners": "565,614",
        "peakDate": "08 Jun 2025"
      },
      {
        "city": "Guadalajara",
        "country": "Mexico",
        "coordinates": {
          "latitude": 20.6597,
          "longitude": -103.3496
        },
        "currentMonthlyListeners": "355,692",
        "peakMonthlyListeners": null,
        "peakDate": "06 Jun 2025"
      },
      {
        "city": "Puebla",
        "country": "Mexico",
        "coordinates": {
          "latitude": 19.0414,
          "longitude": -98.2063
        },
        "currentMonthlyListeners": "268,813",
        "peakMonthlyListeners": null,
        "peakDate": "07 May 2025"
      },
      {
        "city": "Monterrey",
        "country": "Mexico",
        "coordinates": {
          "latitude": 25.6866,
          "longitude": -100.3161
        },
        "currentMonthlyListeners": "215,677",
        "peakMonthlyListeners": null,
        "peakDate": "04 Aug 2025"
      },
      {
        "city": "Zapopan",
        "country": "Mexico",
        "coordinates": {
          "latitude": 20.7227,
          "longitude": -103.3919
        },
        "currentMonthlyListeners": "188,034",
        "peakMonthlyListeners": null,
        "peakDate": "16 Jun 2025"
      },
      {
        "city": "Santiago de Querétaro",
        "country": "Mexico",
        "coordinates": {
          "latitude": 20.5888,
          "longitude": -100.3899
        },
        "currentMonthlyListeners": null,
        "peakMonthlyListeners": "188,909",
        "peakDate": "13 Jun 2025"
      },
      {
        "city": "León",
        "country": "Mexico",
        "coordinates": {
          "latitude": 21.1222,
          "longitude": -101.6827
        },
        "currentMonthlyListeners": "162,575",
        "peakMonthlyListeners": null,
        "peakDate": "05 Jul 2025"
      },
      {
        "city": "Mérida",
        "country": "Mexico",
        "coordinates": {
          "latitude": 20.9674,
          "longitude": -89.5926
        },
        "currentMonthlyListeners": "154,119",
        "peakMonthlyListeners": null,
        "peakDate": "09 Jun 2025"
      },
      {
        "city": "Tijuana",
        "country": "Mexico",
        "coordinates": {
          "latitude": 32.5027,
          "longitude": -117.0382
        },
        "currentMonthlyListeners": null,
        "peakMonthlyListeners": "156,985",
        "peakDate": "20 Jun 2025"
      },
      {
        "city": "San Nicolás de los Garza",
        "country": "Mexico",
        "coordinates": {
          "latitude": 25.7394,
          "longitude": -100.2786
        },
        "currentMonthlyListeners": null,
        "peakMonthlyListeners": "146,811",
        "peakDate": "05 Jul 2025"
      },
      {
        "city": "Ciudad Apodaca",
        "country": "Mexico",
        "coordinates": {
          "latitude": 25.7780,
          "longitude": -100.1872
        },
        "currentMonthlyListeners": null,
        "peakMonthlyListeners": "109,701",
        "peakDate": "09 Jun 2025"
      },
      {
        "city": "Ecatepec de Morelos",
        "country": "Mexico",
        "coordinates": {
          "latitude": 19.6017,
          "longitude": -99.0608
        },
        "currentMonthlyListeners": null,
        "peakMonthlyListeners": "122,314",
        "peakDate": "07 Jul 2025"
      },
      {
        "city": "Guadalupe",
        "country": "Mexico",
        "coordinates": {
          "latitude": 25.6767,
          "longitude": -100.2567
        },
        "currentMonthlyListeners": null,
        "peakMonthlyListeners": "119,107",
        "peakDate": "11 Nov 2024"
      },
      {
        "city": "Ciudad Nezahualcoyotl",
        "country": "Mexico",
        "coordinates": {
          "latitude": 19.4003,
          "longitude": -99.0147
        },
        "currentMonthlyListeners": null,
        "peakMonthlyListeners": "159,300",
        "peakDate": "23 Jun 2025"
      },
      {
        "city": "Chihuahua",
        "country": "Mexico",
        "coordinates": {
          "latitude": 28.6353,
          "longitude": -106.0889
        },
        "currentMonthlyListeners": "87,567",
        "peakMonthlyListeners": null,
        "peakDate": "20 Jun 2025"
      },
      {
        "city": "Culiacán",
        "country": "Mexico",
        "coordinates": {
          "latitude": 24.7999,
          "longitude": -107.3841
        },
        "currentMonthlyListeners": null,
        "peakMonthlyListeners": "132,449",
        "peakDate": "22 Jul 2023"
      },
      {
        "city": "Heroica Veracruz",
        "country": "Mexico",
        "coordinates": {
          "latitude": 19.1738,
          "longitude": -96.1342
        },
        "currentMonthlyListeners": "77,465",
        "peakMonthlyListeners": null,
        "peakDate": "02 Oct 2025"
      },
      {
        "city": "Toluca",
        "country": "Mexico",
        "coordinates": {
          "latitude": 19.2827,
          "longitude": -99.6557
        },
        "currentMonthlyListeners": "76,977",
        "peakMonthlyListeners": null,
        "peakDate": "17 Feb 2022"
      },
      {
        "city": "Colonia Cuauhtémoc",
        "country": "Mexico",
        "coordinates": {
          "latitude": 19.4339,
          "longitude": -99.1584
        },
        "currentMonthlyListeners": null,
        "peakMonthlyListeners": "394,918",
        "peakDate": "21 Jul 2025"
      }
    ],
    "cityCharts": [
      {
        "city": "Buenos Aires",
        "country": "Argentina",
        "coordinates": {
          "latitude": -34.6118,
          "longitude": -58.3960
        },
        "totalTracksCharted": 98,
        "currentTracksCharted": 0,
        "previousTracksCharted": 98
      },
      {
        "city": "Córdoba",
        "country": "Argentina",
        "coordinates": {
          "latitude": -31.4201,
          "longitude": -64.1888
        },
        "totalTracksCharted": 86,
        "currentTracksCharted": 0,
        "previousTracksCharted": 86
      },
      {
        "city": "Rosario",
        "country": "Argentina",
        "coordinates": {
          "latitude": -32.9442,
          "longitude": -60.6505
        },
        "totalTracksCharted": 84,
        "currentTracksCharted": 0,
        "previousTracksCharted": 84
      },
      {
        "city": "Montevideo",
        "country": "Uruguay",
        "coordinates": {
          "latitude": -34.9011,
          "longitude": -56.1645
        },
        "totalTracksCharted": 71,
        "currentTracksCharted": 0,
        "previousTracksCharted": 71
      },
      {
        "city": "Valencia",
        "country": "Spain",
        "coordinates": {
          "latitude": 39.4699,
          "longitude": -0.3763
        },
        "totalTracksCharted": 39,
        "currentTracksCharted": 0,
        "previousTracksCharted": 39
      },
      {
        "city": "Madrid",
        "country": "Spain",
        "coordinates": {
          "latitude": 40.4168,
          "longitude": -3.7038
        },
        "totalTracksCharted": 38,
        "currentTracksCharted": 0,
        "previousTracksCharted": 38
      },
      {
        "city": "Seville",
        "country": "Spain",
        "coordinates": {
          "latitude": 37.3886,
          "longitude": -5.9823
        },
        "totalTracksCharted": 37,
        "currentTracksCharted": 0,
        "previousTracksCharted": 37
      },
      {
        "city": "Málaga",
        "country": "Spain",
        "coordinates": {
          "latitude": 36.7213,
          "longitude": -4.4214
        },
        "totalTracksCharted": 37,
        "currentTracksCharted": 0,
        "previousTracksCharted": 37
      },
      {
        "city": "Barcelona",
        "country": "Spain",
        "coordinates": {
          "latitude": 41.3851,
          "longitude": 2.1734
        },
        "totalTracksCharted": 35,
        "currentTracksCharted": 0,
        "previousTracksCharted": 35
      },
      {
        "city": "Bilbao",
        "country": "Spain",
        "coordinates": {
          "latitude": 43.2627,
          "longitude": -2.9253
        },
        "totalTracksCharted": 33,
        "currentTracksCharted": 0,
        "previousTracksCharted": 33
      },
      {
        "city": "Asunción",
        "country": "Paraguay",
        "coordinates": {
          "latitude": -25.2637,
          "longitude": -57.5759
        },
        "totalTracksCharted": 26,
        "currentTracksCharted": 0,
        "previousTracksCharted": 26
      },
      {
        "city": "La Paz",
        "country": "Bolivia",
        "coordinates": {
          "latitude": -16.5000,
          "longitude": -68.1500
        },
        "totalTracksCharted": 21,
        "currentTracksCharted": 0,
        "previousTracksCharted": 21
      },
      {
        "city": "Concepción",
        "country": "Chile",
        "coordinates": {
          "latitude": -36.8201,
          "longitude": -73.0444
        },
        "totalTracksCharted": 19,
        "currentTracksCharted": 0,
        "previousTracksCharted": 19
      },
      {
        "city": "San Salvador",
        "country": "El Salvador",
        "coordinates": {
          "latitude": 13.6929,
          "longitude": -89.2182
        },
        "totalTracksCharted": 19,
        "currentTracksCharted": 0,
        "previousTracksCharted": 19
      },
      {
        "city": "Santiago",
        "country": "Chile",
        "coordinates": {
          "latitude": -33.4489,
          "longitude": -70.6693
        },
        "totalTracksCharted": 18,
        "currentTracksCharted": 0,
        "previousTracksCharted": 18
      },
      {
        "city": "Santa Cruz de la Sierra",
        "country": "Bolivia",
        "coordinates": {
          "latitude": -17.7640,
          "longitude": -63.1821
        },
        "totalTracksCharted": 16,
        "currentTracksCharted": 0,
        "previousTracksCharted": 16
      },
      {
        "city": "Quito",
        "country": "Ecuador",
        "coordinates": {
          "latitude": -0.1807,
          "longitude": -78.4678
        },
        "totalTracksCharted": 11,
        "currentTracksCharted": 0,
        "previousTracksCharted": 11
      },
      {
        "city": "Lima",
        "country": "Peru",
        "coordinates": {
          "latitude": -12.0464,
          "longitude": -77.0428
        },
        "totalTracksCharted": 11,
        "currentTracksCharted": 0,
        "previousTracksCharted": 11
      },
      {
        "city": "Mérida",
        "country": "Mexico",
        "coordinates": {
          "latitude": 20.9674,
          "longitude": -89.5926
        },
        "totalTracksCharted": 10,
        "currentTracksCharted": 0,
        "previousTracksCharted": 10
      },
      {
        "city": "Guayaquil",
        "country": "Ecuador",
        "coordinates": {
          "latitude": -2.1894,
          "longitude": -79.8890
        },
        "totalTracksCharted": 10,
        "currentTracksCharted": 0,
        "previousTracksCharted": 10
      },
      {
        "city": "San José",
        "country": "Costa Rica",
        "coordinates": {
          "latitude": 9.9281,
          "longitude": -84.0907
        },
        "totalTracksCharted": 10,
        "currentTracksCharted": 0,
        "previousTracksCharted": 10
      },
      {
        "city": "Managua",
        "country": "Nicaragua",
        "coordinates": {
          "latitude": 12.1364,
          "longitude": -86.2514
        },
        "totalTracksCharted": 9,
        "currentTracksCharted": 0,
        "previousTracksCharted": 9
      },
      {
        "city": "Panama City",
        "country": "Panama",
        "coordinates": {
          "latitude": 8.9824,
          "longitude": -79.5199
        },
        "totalTracksCharted": 9,
        "currentTracksCharted": 0,
        "previousTracksCharted": 9
      },
      {
        "city": "Arequipa",
        "country": "Peru",
        "coordinates": {
          "latitude": -16.4090,
          "longitude": -71.5375
        },
        "totalTracksCharted": 9,
        "currentTracksCharted": 0,
        "previousTracksCharted": 9
      }
    ],
    "countryCharts": [
      {
        "country": "Argentina",
        "coordinates": {
          "latitude": -38.4161,
          "longitude": -63.6167
        },
        "totalTracksCharted": 245,
        "currentTracksCharted": 1,
        "previousTracksCharted": 245
      },
      {
        "country": "Uruguay",
        "coordinates": {
          "latitude": -32.5228,
          "longitude": -55.7658
        },
        "totalTracksCharted": 232,
        "currentTracksCharted": 0,
        "previousTracksCharted": 232
      },
      {
        "country": "Paraguay",
        "coordinates": {
          "latitude": -23.4425,
          "longitude": -58.4438
        },
        "totalTracksCharted": 172,
        "currentTracksCharted": 0,
        "previousTracksCharted": 172
      },
      {
        "country": "Chile",
        "coordinates": {
          "latitude": -35.6751,
          "longitude": -71.5430
        },
        "totalTracksCharted": 148,
        "currentTracksCharted": 0,
        "previousTracksCharted": 148
      },
      {
        "country": "Spain",
        "coordinates": {
          "latitude": 40.4637,
          "longitude": -3.7492
        },
        "totalTracksCharted": 143,
        "currentTracksCharted": 0,
        "previousTracksCharted": 143
      },
      {
        "country": "Costa Rica",
        "coordinates": {
          "latitude": 9.7489,
          "longitude": -83.7534
        },
        "totalTracksCharted": 126,
        "currentTracksCharted": 0,
        "previousTracksCharted": 126
      },
      {
        "country": "Bolivia",
        "coordinates": {
          "latitude": -16.2902,
          "longitude": -63.5887
        },
        "totalTracksCharted": 126,
        "currentTracksCharted": 0,
        "previousTracksCharted": 126
      },
      {
        "country": "Peru",
        "coordinates": {
          "latitude": -9.1900,
          "longitude": -75.0152
        },
        "totalTracksCharted": 115,
        "currentTracksCharted": 0,
        "previousTracksCharted": 115
      },
      {
        "country": "Ecuador",
        "coordinates": {
          "latitude": -1.8312,
          "longitude": -78.1834
        },
        "totalTracksCharted": 108,
        "currentTracksCharted": 0,
        "previousTracksCharted": 108
      },
      {
        "country": "El Salvador",
        "coordinates": {
          "latitude": 13.7942,
          "longitude": -88.8965
        },
        "totalTracksCharted": 106,
        "currentTracksCharted": 0,
        "previousTracksCharted": 106
      },
      {
        "country": "Guatemala",
        "coordinates": {
          "latitude": 15.7835,
          "longitude": -90.2308
        },
        "totalTracksCharted": 95,
        "currentTracksCharted": 0,
        "previousTracksCharted": 95
      },
      {
        "country": "Panama",
        "coordinates": {
          "latitude": 8.5380,
          "longitude": -80.7821
        },
        "totalTracksCharted": 79,
        "currentTracksCharted": 0,
        "previousTracksCharted": 79
      },
      {
        "country": "Colombia",
        "coordinates": {
          "latitude": 4.5709,
          "longitude": -74.2973
        },
        "totalTracksCharted": 73,
        "currentTracksCharted": 0,
        "previousTracksCharted": 73
      },
      {
        "country": "Honduras",
        "coordinates": {
          "latitude": 15.2000,
          "longitude": -86.2419
        },
        "totalTracksCharted": 69,
        "currentTracksCharted": 0,
        "previousTracksCharted": 69
      },
      {
        "country": "Nicaragua",
        "coordinates": {
          "latitude": 12.8654,
          "longitude": -85.2072
        },
        "totalTracksCharted": 66,
        "currentTracksCharted": 0,
        "previousTracksCharted": 66
      },
      {
        "country": "Mexico",
        "coordinates": {
          "latitude": 23.6345,
          "longitude": -102.5528
        },
        "totalTracksCharted": 64,
        "currentTracksCharted": 0,
        "previousTracksCharted": 64
      },
      {
        "country": "Global",
        "coordinates": {
          "latitude": 0,
          "longitude": 0
        },
        "totalTracksCharted": 63,
        "currentTracksCharted": 8,
        "previousTracksCharted": 63
      },
      {
        "country": "Venezuela",
        "coordinates": {
          "latitude": 6.4238,
          "longitude": -66.5897
        },
        "totalTracksCharted": 58,
        "currentTracksCharted": 0,
        "previousTracksCharted": 58
      },
      {
        "country": "Dominican Republic",
        "coordinates": {
          "latitude": 18.7357,
          "longitude": -70.1627
        },
        "totalTracksCharted": 50,
        "currentTracksCharted": 0,
        "previousTracksCharted": 50
      },
      {
        "country": "Italy",
        "coordinates": {
          "latitude": 41.8719,
          "longitude": 12.5674
        },
        "totalTracksCharted": 15,
        "currentTracksCharted": 0,
        "previousTracksCharted": 15
      },
      {
        "country": "Switzerland",
        "coordinates": {
          "latitude": 46.8182,
          "longitude": 8.2275
        },
        "totalTracksCharted": 10,
        "currentTracksCharted": 0,
        "previousTracksCharted": 10
      },
      {
        "country": "Portugal",
        "coordinates": {
          "latitude": 39.3999,
          "longitude": -8.2245
        },
        "totalTracksCharted": 6,
        "currentTracksCharted": 0,
        "previousTracksCharted": 6
      },
      {
        "country": "France",
        "coordinates": {
          "latitude": 46.2276,
          "longitude": 2.2137
        },
        "totalTracksCharted": 5,
        "currentTracksCharted": 0,
        "previousTracksCharted": 5
      },
      {
        "country": "United States",
        "coordinates": {
          "latitude": 37.0902,
          "longitude": -95.7129
        },
        "totalTracksCharted": 5,
        "currentTracksCharted": 0,
        "previousTracksCharted": 5
      }
    ]
  }
}